City_ID,City,Country,Date,Lat,Lng,Max Temp,Humidity,Cloudiness,Wind Speed,Current Description,Rain Inches (current 3 hours),Snow Inches (current 3 hours)
0,Chokurdakh,RU,2020-01-17 00:41:48,70.63,147.92,-20.04,97,100,7.72,overcast clouds,0.0,0.0
1,Airai,TL,2020-01-17 00:41:49,-8.93,125.41,76.77,74,18,1.23,few clouds,0.0,0.0
2,Sitka,US,2020-01-17 00:41:49,57.05,-135.33,16.57,61,83,9.37,broken clouds,0.0,0.0
3,Port Alfred,ZA,2020-01-17 00:41:50,-33.59,26.89,71.01,95,0,16.44,clear sky,0.0,0.0
4,Oppdal,NO,2020-01-17 00:41:50,62.59,9.69,21.6,78,83,12.24,broken clouds,0.0,0.0
5,Albany,US,2020-01-17 00:41:50,42.6,-73.97,32.0,62,93,5.01,overcast clouds,0.0,0.0
6,Santiago Del Estero,AR,2020-01-17 00:41:51,-27.8,-64.26,71.87,29,99,7.11,overcast clouds,0.0,0.0
7,Abnub,EG,2020-01-17 00:41:51,27.27,31.15,48.04,82,0,5.95,clear sky,0.0,0.0
8,Baculin,PH,2020-01-17 00:41:51,7.45,126.58,74.03,88,85,2.84,overcast clouds,0.0,0.0
9,Castro,BR,2020-01-17 00:41:52,-24.79,-50.01,67.05,98,100,0.13,light rain,1.94,0.0
10,Bilma,NE,2020-01-17 00:41:52,18.69,12.92,55.85,48,31,15.64,scattered clouds,0.0,0.0
11,Rikitea,PF,2020-01-17 00:41:52,-23.12,-134.97,77.49,78,11,16.28,few clouds,0.0,0.0
12,New Norfolk,AU,2020-01-17 00:41:53,-42.78,147.06,59.0,54,80,1.01,broken clouds,0.0,0.0
13,Upernavik,GL,2020-01-17 00:41:53,72.79,-56.15,-10.91,58,1,3.85,clear sky,0.0,0.0
14,Coquimbo,CL,2020-01-17 00:41:54,-29.95,-71.34,62.82,88,7,0.49,clear sky,0.0,0.0
15,Barrow,US,2020-01-17 00:41:54,71.29,-156.79,12.2,78,1,11.41,clear sky,0.0,0.0
16,Marawi,PH,2020-01-17 00:41:55,8.0,124.29,81.0,78,46,1.99,scattered clouds,0.0,0.0
17,Hasaki,JP,2020-01-17 00:39:05,35.73,140.83,43.0,85,100,19.89,light rain,0.5,0.0
18,Ponta Do Sol,PT,2020-01-17 00:41:55,32.67,-17.1,60.01,84,0,1.99,clear sky,0.0,0.0
19,Cherskiy,RU,2020-01-17 00:41:56,68.75,161.3,-21.71,98,100,3.2,light snow,0.0,0.13
20,La Union,PE,2020-01-17 00:41:56,-5.4,-80.75,81.0,57,56,18.68,broken clouds,0.0,0.0
21,Nikolskoye,RU,2020-01-17 00:41:57,59.7,30.79,42.01,93,99,8.03,light rain,0.13,0.0
22,Busselton,AU,2020-01-17 00:41:57,-33.65,115.33,75.0,43,48,13.27,scattered clouds,0.0,0.0
23,Jamestown,US,2020-01-17 00:41:57,42.1,-79.24,28.99,89,98,11.01,light snow,0.0,0.62
24,Sinjai,ID,2020-01-17 00:41:58,-5.12,120.25,81.82,77,94,4.68,overcast clouds,0.0,0.0
25,Dikson,RU,2020-01-17 00:41:58,73.51,80.55,-4.25,97,99,7.74,light snow,0.0,0.19
26,Punta Arenas,CL,2020-01-17 00:39:05,-53.15,-70.92,55.0,76,99,18.99,light rain,0.12,0.0
27,East London,ZA,2020-01-17 00:41:59,-33.02,27.91,77.09,82,0,20.15,clear sky,0.0,0.0
28,Mar Del Plata,AR,2020-01-17 00:38:20,-38.0,-57.56,61.0,57,0,4.0,clear sky,0.0,0.0
29,Pevek,RU,2020-01-17 00:42:00,69.7,170.31,-7.38,98,100,16.71,light snow,0.0,1.0
30,Cockburn Town,TC,2020-01-17 00:42:01,21.46,-71.14,76.69,80,47,18.41,light rain,0.38,0.0
31,Tiksi,RU,2020-01-17 00:42:02,71.69,128.87,-19.35,89,94,7.29,overcast clouds,0.0,0.0
32,Nampa,US,2020-01-17 00:40:53,43.54,-116.56,44.01,62,100,1.99,overcast clouds,0.0,0.0
33,Elko,US,2020-01-17 00:42:03,41.0,-115.5,46.0,37,87,25.01,overcast clouds,0.0,0.0
34,Nouadhibou,MR,2020-01-17 00:42:03,20.93,-17.03,65.52,51,0,16.22,clear sky,0.0,0.0
35,Kerema,PG,2020-01-17 00:42:03,-7.96,145.78,90.93,48,69,2.48,broken clouds,0.0,0.0
36,Yashkul,RU,2020-01-17 00:42:03,46.17,45.34,32.68,95,6,5.82,clear sky,0.0,0.0
37,Marsa Matruh,EG,2020-01-17 00:42:04,31.35,27.25,60.89,80,11,24.54,light rain,1.13,0.0
38,Gambela,ET,2020-01-17 00:42:04,8.25,34.58,78.12,38,0,1.48,clear sky,0.0,0.0
39,Oeiras,BR,2020-01-17 00:42:05,-7.03,-42.13,76.53,77,93,2.73,overcast clouds,0.0,0.0
40,Iqaluit,CA,2020-01-17 00:41:36,63.75,-68.51,-22.0,67,40,16.11,scattered clouds,0.0,0.0
41,Avarua,CK,2020-01-17 00:42:05,-21.21,-159.78,79.57,82,100,12.73,overcast clouds,0.0,0.0
42,Thompson,CA,2020-01-17 00:42:06,55.74,-97.86,-16.46,94,34,4.54,scattered clouds,0.0,0.0
43,Zemio,CF,2020-01-17 00:42:06,5.03,25.14,69.8,34,4,2.51,clear sky,0.0,0.0
44,Isangel,VU,2020-01-17 00:42:06,-19.55,169.27,79.25,77,62,18.99,light rain,0.13,0.0
45,Vaini,TO,2020-01-17 00:42:07,-21.2,-175.2,80.51,85,100,13.89,moderate rain,3.19,0.0
46,Nanortalik,GL,2020-01-17 00:42:07,60.14,-45.24,24.49,52,83,8.16,broken clouds,0.0,0.0
47,Solnechnyy,RU,2020-01-17 00:42:08,50.72,136.63,-8.84,93,5,2.37,clear sky,0.0,0.0
48,Sorland,NO,2020-01-17 00:42:08,67.67,12.69,42.46,91,84,14.0,light rain,0.44,0.0
49,Dalvik,IS,2020-01-17 00:42:08,65.97,-18.53,30.2,74,46,21.92,scattered clouds,0.0,0.0
50,Georgetown,MY,2020-01-17 00:37:37,5.41,100.34,78.01,88,77,3.0,broken clouds,0.0,0.0
51,Bethel,US,2020-01-17 00:39:22,41.37,-73.41,39.0,51,40,18.34,scattered clouds,0.0,0.0
52,Ushuaia,AR,2020-01-17 00:40:12,-54.8,-68.3,41.74,97,97,5.39,light rain,0.56,0.0
53,Saint Anthony,US,2020-01-17 00:42:10,45.02,-93.22,1.0,70,1,1.21,clear sky,0.0,0.0
54,Evensk,RU,2020-01-17 00:42:10,61.95,159.23,-7.31,82,99,9.91,overcast clouds,0.0,0.0
55,Cape Town,ZA,2020-01-17 00:39:32,-33.93,18.42,73.0,78,6,19.46,clear sky,0.0,0.0
56,Gizo,SB,2020-01-17 00:42:11,-8.1,156.84,80.6,79,98,11.79,light rain,0.63,0.0
57,Ostrovnoy,RU,2020-01-17 00:42:12,68.05,39.51,8.37,92,76,7.25,broken clouds,0.0,0.0
58,Rincon,US,2020-01-17 00:42:05,32.3,-81.24,69.8,46,20,10.29,few clouds,0.0,0.0
59,Namibe,AO,2020-01-17 00:42:13,-15.2,12.15,75.47,80,91,7.52,overcast clouds,0.0,0.0
60,Stuttgart,DE,2020-01-17 00:40:09,48.78,9.18,45.0,90,0,1.01,clear sky,0.0,0.0
61,Merauke,ID,2020-01-17 00:42:14,-8.47,140.33,85.17,73,64,7.54,broken clouds,0.0,0.0
62,Cayenne,GF,2020-01-17 00:42:14,4.93,-52.33,76.05,93,43,4.65,light rain,0.25,0.0
63,Kodinsk,RU,2020-01-17 00:42:15,58.69,99.18,15.53,93,99,8.03,light snow,0.0,0.13
64,Broken Hill,AU,2020-01-17 00:42:15,-31.95,141.43,71.22,36,0,17.4,clear sky,0.0,0.0
65,Hobart,AU,2020-01-17 00:42:15,-42.88,147.33,59.0,65,81,1.99,broken clouds,0.0,0.0
66,Dalbandin,PK,2020-01-17 00:42:15,28.89,64.41,37.51,65,39,3.47,scattered clouds,0.0,0.0
67,Hermanus,ZA,2020-01-17 00:42:16,-34.42,19.23,70.0,92,34,1.99,scattered clouds,0.06,0.0
68,Kapaa,US,2020-01-17 00:41:30,22.08,-159.32,75.0,59,45,3.0,moderate rain,0.0,0.0
69,Bredasdorp,ZA,2020-01-17 00:42:17,-34.53,20.04,71.6,88,52,2.24,light rain,0.13,0.0
70,Zykovo,RU,2020-01-17 00:42:17,55.95,93.15,13.87,77,47,10.63,scattered clouds,0.0,0.0
71,Inhambane,MZ,2020-01-17 00:42:17,-23.86,35.38,81.45,77,13,7.58,few clouds,0.0,0.0
72,Alexandria,EG,2020-01-17 00:41:27,31.22,29.96,53.92,93,1,8.19,clear sky,0.0,0.0
73,Dom Pedrito,BR,2020-01-17 00:42:18,-30.98,-54.67,64.85,46,51,7.92,broken clouds,0.0,0.0
74,Sao Joao Da Barra,BR,2020-01-17 00:42:18,-21.64,-41.05,77.88,91,55,14.61,light rain,1.56,0.0
75,Saint-Joseph,RE,2020-01-17 00:42:19,-21.37,55.62,78.8,78,78,5.82,broken clouds,0.0,0.0
76,Puerto Carreno,CO,2020-01-17 00:42:19,6.19,-67.49,75.61,85,85,1.48,overcast clouds,0.0,0.0
77,Howard Springs,AU,2020-01-17 00:42:20,-12.5,131.05,90.0,79,100,1.01,overcast clouds,0.0,0.0
78,Kabo,CF,2020-01-17 00:42:20,7.7,18.63,72.19,20,51,4.56,broken clouds,0.0,0.0
79,Mandalgovi,MN,2020-01-17 00:42:21,45.76,106.27,3.18,85,39,5.61,scattered clouds,0.0,0.0
80,Puerto Ayora,EC,2020-01-17 00:42:21,-0.74,-90.35,75.99,70,55,1.01,broken clouds,0.0,0.0
81,Mbandaka,CD,2020-01-17 00:42:21,0.05,18.26,76.86,65,90,2.35,overcast clouds,0.0,0.0
82,Abu Samrah,SY,2020-01-17 00:42:21,35.3,37.18,45.16,85,99,21.07,light rain,0.25,0.0
83,Comodoro Rivadavia,AR,2020-01-17 00:42:22,-45.87,-67.5,63.05,56,0,12.95,clear sky,0.0,0.0
84,Carnarvon,AU,2020-01-17 00:42:22,-24.87,113.63,76.15,85,0,9.71,clear sky,0.0,0.0
85,Palembang,ID,2020-01-17 00:42:23,-2.92,104.75,76.87,92,100,0.63,light rain,1.94,0.0
86,Muros,ES,2020-01-17 00:42:23,42.78,-9.06,54.0,74,15,15.99,light rain,1.19,0.0
87,Atuona,PF,2020-01-17 00:42:24,-9.8,-139.03,81.93,72,35,20.02,light rain,0.12,0.0
88,Vostok,RU,2020-01-17 00:42:24,46.49,135.88,-7.51,95,100,4.65,overcast clouds,0.0,0.0
89,Butaritari,KI,2020-01-17 00:42:25,3.07,172.79,84.42,78,84,15.86,broken clouds,0.0,0.0
90,Saint-Philippe,RE,2020-01-17 00:42:25,-21.36,55.77,78.8,78,80,5.82,light rain,1.25,0.0
91,Vadso,NO,2020-01-17 00:42:26,70.07,29.75,25.75,87,100,11.72,light snow,0.0,0.37
92,Pennadam,IN,2020-01-17 00:42:26,11.4,79.23,68.04,88,0,4.47,clear sky,0.0,0.0
93,Bathsheba,BB,2020-01-17 00:42:27,13.22,-59.52,77.81,80,4,15.55,clear sky,0.0,0.0
94,Severo-Kurilsk,RU,2020-01-17 00:42:27,50.68,156.12,18.3,89,96,21.56,light snow,0.0,0.44
95,Ribeirao Das Neves,BR,2020-01-17 00:42:27,-19.77,-44.09,75.47,70,100,0.83,moderate rain,5.5,0.0
96,Assiniboia,CA,2020-01-17 00:39:29,49.63,-105.98,-2.94,93,100,13.96,overcast clouds,0.0,0.0
97,General Roca,AR,2020-01-17 00:42:26,-39.03,-67.58,77.27,9,0,9.55,clear sky,0.0,0.0
98,Hilo,US,2020-01-17 00:42:29,19.73,-155.09,75.99,99,100,5.99,moderate rain,0.0,0.0
99,Hokitika,NZ,2020-01-17 00:42:29,-42.72,170.97,60.21,81,0,7.96,clear sky,0.0,0.0
100,Lebu,CL,2020-01-17 00:42:30,-37.62,-73.65,60.62,59,0,10.96,clear sky,0.0,0.0
101,Nishihara,JP,2020-01-17 00:42:30,26.18,127.76,69.01,77,0,10.0,clear sky,0.0,0.0
102,Husavik,IS,2020-01-17 00:42:31,66.04,-17.34,30.2,74,49,21.92,scattered clouds,0.0,0.0
103,Hay River,CA,2020-01-17 00:42:32,60.82,-115.8,-27.4,67,75,2.75,mist,0.0,0.0
104,Adrar,MR,2020-01-17 00:42:33,20.5,-10.07,60.89,18,63,13.31,broken clouds,0.0,0.0
105,Arraial Do Cabo,BR,2020-01-17 00:42:33,-22.97,-42.03,81.0,84,79,2.08,light rain,0.69,0.0
106,Mount Gambier,AU,2020-01-17 00:42:33,-37.83,140.77,57.7,61,92,10.89,overcast clouds,0.0,0.0
107,Bay Roberts,CA,2020-01-17 00:42:34,47.6,-53.26,16.0,43,0,1.01,clear sky,0.0,0.0
108,Provideniya,RU,2020-01-17 00:42:34,64.38,-173.3,8.2,95,100,7.83,light snow,0.0,0.31
109,Tuatapere,NZ,2020-01-17 00:42:34,-46.13,167.68,73.69,33,37,4.23,scattered clouds,0.0,0.0
110,Anse-Bertrand,GP,2020-01-17 00:42:36,16.47,-61.51,77.52,79,12,17.13,light rain,0.5,0.0
111,Wad Rawah,SD,2020-01-17 00:42:36,15.16,33.14,69.49,31,0,9.84,clear sky,0.0,0.0
112,Katsuura,JP,2020-01-17 00:42:36,35.13,140.3,46.99,56,100,11.01,overcast clouds,0.06,0.0
113,Dubbo,AU,2020-01-17 00:42:37,-32.25,148.62,76.64,57,82,7.87,broken clouds,0.0,0.0
114,Mataura,NZ,2020-01-17 00:42:37,-46.19,168.86,73.83,64,2,0.63,clear sky,0.0,0.0
115,Yala,TH,2020-01-17 00:42:37,6.33,101.25,69.22,95,100,2.89,overcast clouds,0.0,0.0
116,Norman Wells,CA,2020-01-17 00:38:25,65.28,-126.83,-11.15,92,83,0.65,broken clouds,0.0,0.0
117,Meulaboh,ID,2020-01-17 00:42:38,4.14,96.13,80.92,80,99,8.95,light rain,2.0,0.0
118,Fayaoue,NC,2020-01-17 00:42:39,-20.65,166.53,79.02,78,29,14.41,scattered clouds,0.0,0.0
119,Torbay,CA,2020-01-17 00:42:39,47.67,-52.73,16.0,87,0,7.72,clear sky,0.0,0.0
120,Guasdualito,VE,2020-01-17 00:42:39,7.24,-70.73,80.49,70,43,3.33,scattered clouds,0.0,0.0
121,Kaitangata,NZ,2020-01-17 00:42:39,-46.28,169.85,64.99,64,0,13.27,clear sky,0.0,0.0
122,Moron,AR,2020-01-17 00:40:54,-34.65,-58.62,72.0,53,0,1.01,clear sky,0.0,0.0
123,Qaanaaq,GL,2020-01-17 00:42:40,77.48,-69.36,-18.45,57,0,8.37,clear sky,0.0,0.0
124,Champerico,GT,2020-01-17 00:42:41,14.3,-91.92,80.53,68,0,5.41,clear sky,0.0,0.0
125,Frederico Westphalen,BR,2020-01-17 00:42:41,-27.36,-53.39,72.0,95,100,7.96,overcast clouds,0.0,0.0
126,Codrington,AU,2020-01-17 00:42:42,-38.27,141.97,56.71,77,51,19.44,broken clouds,0.0,0.0
127,Hithadhoo,MV,2020-01-17 00:42:42,-0.6,73.08,81.5,78,65,16.26,broken clouds,0.0,0.0
128,Quang Ngai,VN,2020-01-17 00:42:42,15.12,108.8,72.88,78,17,8.5,few clouds,0.0,0.0
129,Batsfjord,NO,2020-01-17 00:42:43,70.63,29.72,12.47,96,87,2.84,light snow,0.0,0.13
130,Clyde River,CA,2020-01-17 00:42:44,70.47,-68.59,-11.2,83,90,12.75,overcast clouds,0.0,0.0
131,Mehamn,NO,2020-01-17 00:42:44,71.04,27.85,16.97,92,95,4.14,light snow,0.0,0.19
132,Longyearbyen,SJ,2020-01-17 00:42:45,78.22,15.64,-1.43,97,74,2.77,light snow,0.0,0.13
133,Faya,SA,2020-01-17 00:42:45,18.39,42.45,52.32,54,0,1.3,clear sky,0.0,0.0
134,Aklavik,CA,2020-01-17 00:42:45,68.22,-135.01,-14.8,75,75,3.36,mist,0.0,0.0
135,Ures,MX,2020-01-17 00:42:46,29.43,-110.4,64.99,67,100,1.01,overcast clouds,0.0,0.0
136,Kodiak,US,2020-01-17 00:42:47,57.79,-152.41,27.12,64,6,7.14,clear sky,0.0,0.0
137,Abengourou,CI,2020-01-17 00:42:47,6.73,-3.5,71.64,52,0,2.64,clear sky,0.0,0.0
138,Alofi,NU,2020-01-17 00:42:49,-19.06,-169.92,82.02,81,100,23.82,moderate rain,3.06,0.0
139,Banjar,ID,2020-01-17 00:42:49,-8.19,114.97,82.33,71,99,6.6,overcast clouds,0.0,0.0
140,Bluff,NZ,2020-01-17 00:42:49,-46.6,168.33,66.6,58,21,7.74,few clouds,0.0,0.0
141,Ko Samui,TH,2020-01-17 00:42:51,9.54,99.94,80.89,69,72,8.9,broken clouds,0.0,0.0
142,Bontang,ID,2020-01-17 00:42:52,0.13,117.5,80.02,79,35,2.82,scattered clouds,0.0,0.0
143,Nicoya,CR,2020-01-17 00:42:53,10.15,-85.45,72.0,20,22,3.15,few clouds,0.0,0.0
144,Saskylakh,RU,2020-01-17 00:42:54,71.92,114.08,-19.32,92,58,5.73,broken clouds,0.0,0.0
145,Tasiilaq,GL,2020-01-17 00:42:55,65.61,-37.64,19.4,44,0,12.75,clear sky,0.0,0.0
146,Pisco,PE,2020-01-17 00:42:55,-13.7,-76.22,71.01,92,78,15.01,broken clouds,0.0,0.0
147,Baruun-Urt,MN,2020-01-17 00:42:56,46.68,113.28,-3.89,86,0,9.1,clear sky,0.0,0.0
148,Kristiansund,NO,2020-01-17 00:42:57,63.11,7.73,36.59,67,83,6.53,broken clouds,0.0,0.0
149,Cabo San Lucas,MX,2020-01-17 00:42:38,22.89,-109.91,75.0,34,100,5.57,overcast clouds,0.0,0.0
150,Salalah,OM,2020-01-17 00:42:57,17.02,54.09,61.59,50,0,10.38,clear sky,0.0,0.0
151,Yambio,SS,2020-01-17 00:42:58,4.57,28.4,79.32,31,67,2.51,broken clouds,0.0,0.0
152,Barkhan,PK,2020-01-17 00:42:59,29.9,69.53,33.08,44,3,3.85,clear sky,0.0,0.0
153,Quatre Cocos,MU,2020-01-17 00:42:59,-20.21,57.76,79.0,88,75,9.17,broken clouds,0.0,0.0
154,Vardo,NO,2020-01-17 00:42:59,70.37,31.11,24.28,90,99,7.45,light snow,0.0,0.25
155,Erenhot,CN,2020-01-17 00:41:11,43.65,111.98,11.17,94,92,8.03,overcast clouds,0.0,0.0
156,Flinders,AU,2020-01-17 00:43:01,-34.58,150.86,66.99,21,100,5.01,light rain,0.44,0.0
157,Vila Velha,BR,2020-01-17 00:43:02,-20.33,-40.29,84.99,64,83,4.21,light rain,0.75,0.0
158,Faanui,PF,2020-01-17 00:43:02,-16.48,-151.75,81.99,79,20,18.39,light rain,0.94,0.0
159,Kruisfontein,ZA,2020-01-17 00:43:03,-34.0,24.73,73.44,85,87,14.07,overcast clouds,0.0,0.0
160,Beloha,MG,2020-01-17 00:43:04,-25.17,45.05,73.09,74,67,2.68,broken clouds,0.0,0.0
161,Challans,FR,2020-01-17 00:43:04,46.84,-1.87,52.0,97,100,7.0,moderate rain,5.44,0.0
162,Ahipara,NZ,2020-01-17 00:43:04,-35.17,173.17,84.0,59,0,1.01,clear sky,0.0,0.0
163,Bambous Virieux,MU,2020-01-17 00:43:05,-20.34,57.76,79.0,88,75,9.17,broken clouds,0.0,0.0
164,Port Elizabeth,ZA,2020-01-17 00:43:05,-33.92,25.57,73.4,94,75,16.11,broken clouds,0.0,0.0
165,Thayetmyo,MM,2020-01-17 00:43:06,19.32,95.18,60.08,65,0,3.53,clear sky,0.0,0.0
166,Lake Charles,US,2020-01-17 00:43:07,30.21,-93.2,66.2,88,90,9.17,overcast clouds,0.0,0.0
167,Tuktoyaktuk,CA,2020-01-17 00:43:07,69.45,-133.04,-4.41,91,100,8.03,overcast clouds,0.0,0.0
168,Otradnoye,RU,2020-01-17 00:43:07,59.78,30.82,42.01,93,99,8.48,overcast clouds,0.06,0.0
169,Fatehabad,IN,2020-01-17 00:43:08,29.52,75.45,46.38,85,0,2.24,clear sky,0.0,0.0
170,Ribeira Grande,PT,2020-01-17 00:43:08,38.52,-28.7,53.02,65,93,8.59,overcast clouds,0.0,0.0
171,Asau,RO,2020-01-17 00:43:09,46.43,26.4,28.0,83,0,4.76,clear sky,0.0,0.0
172,Khatanga,RU,2020-01-17 00:42:19,71.97,102.5,-16.1,90,95,10.31,overcast clouds,0.0,0.0
173,Yar-Sale,RU,2020-01-17 00:43:10,66.83,70.83,2.84,89,100,21.72,light snow,0.0,0.13
174,Guskhara,IN,2020-01-17 00:43:10,23.5,87.75,64.0,66,12,4.07,few clouds,0.0,0.0
175,Kurumkan,RU,2020-01-17 00:43:10,54.3,110.3,-5.31,94,100,0.63,overcast clouds,0.0,0.0
176,Margate,GB,2020-01-17 00:43:11,51.38,1.39,52.0,73,84,5.01,light rain,0.25,0.0
177,Dongfeng,CN,2020-01-17 00:43:11,42.64,125.51,1.94,88,2,1.72,clear sky,0.0,0.0
178,Uarini,BR,2020-01-17 00:43:11,-2.99,-65.11,77.04,89,98,2.17,light rain,0.75,0.0
179,Kavieng,PG,2020-01-17 00:43:12,-2.57,150.8,84.79,74,58,25.97,broken clouds,0.0,0.0
180,Hambantota,LK,2020-01-17 00:43:12,6.12,81.12,76.77,87,4,10.22,light rain,0.13,0.0
181,Mujiayingzi,CN,2020-01-17 00:43:12,42.12,118.78,13.03,46,92,2.98,overcast clouds,0.0,0.0
182,Yellowknife,CA,2020-01-17 00:42:44,62.46,-114.35,-27.0,67,96,3.0,overcast clouds,0.0,0.0
183,Faizabad,IN,2020-01-17 00:43:13,26.78,82.13,57.81,95,100,7.45,light rain,1.44,0.0
184,Ilulissat,GL,2020-01-17 00:43:14,69.22,-51.1,6.8,55,20,17.22,few clouds,0.0,0.0
185,Matay,EG,2020-01-17 00:43:15,28.42,30.78,48.2,85,0,7.78,clear sky,0.0,0.0
186,Sistranda,NO,2020-01-17 00:43:15,63.73,8.83,37.02,74,83,7.63,broken clouds,0.0,0.0
187,Souillac,MU,2020-01-17 00:43:15,-20.52,57.52,79.0,88,75,9.17,broken clouds,0.0,0.0
188,Saint-Gaudens,FR,2020-01-17 00:43:16,43.08,0.67,48.0,86,8,3.0,clear sky,0.0,0.0
189,Magdagachi,RU,2020-01-17 00:43:16,53.45,125.8,-10.77,90,12,5.17,few clouds,0.0,0.0
190,Terrace Bay,CA,2020-01-17 00:43:17,48.78,-87.1,-8.09,94,85,6.46,overcast clouds,0.0,0.0
191,Westport,US,2020-01-17 00:43:17,41.14,-73.36,39.2,51,40,18.34,scattered clouds,0.0,0.0
192,Doka,SD,2020-01-17 00:43:18,13.52,35.77,69.62,31,0,6.64,clear sky,0.0,0.0
193,Mayo,US,2020-01-17 00:43:18,38.89,-76.51,43.0,48,40,20.8,scattered clouds,0.0,0.0
194,Satuk,TR,2020-01-17 00:43:19,41.23,32.38,25.11,71,0,1.99,clear sky,0.0,0.0
195,Gorlev,DK,2020-01-17 00:43:19,55.54,11.23,43.0,92,57,11.99,broken clouds,0.0,0.0
196,Ende,ID,2020-01-17 00:43:19,-8.84,121.66,83.23,72,89,3.38,overcast clouds,0.0,0.0
197,Dewa,IN,2020-01-17 00:43:20,27.03,81.17,57.18,97,98,5.21,moderate rain,5.81,0.0
198,Victoria,HK,2020-01-17 00:41:11,22.29,114.16,64.0,71,95,5.99,overcast clouds,0.0,0.0
199,Neuquen,AR,2020-01-17 00:41:40,-38.95,-68.06,73.89,9,0,9.31,clear sky,0.0,0.0
200,Igrim,RU,2020-01-17 00:43:21,63.19,64.42,17.31,75,100,16.26,light snow,0.0,1.0
201,Matagami,CA,2020-01-17 00:43:21,49.75,-77.63,-17.09,98,100,5.01,overcast clouds,0.0,0.0
202,Los Llanos De Aridane,ES,2020-01-17 00:43:21,28.66,-17.92,62.6,39,0,9.17,clear sky,0.0,0.0
203,Haines Junction,CA,2020-01-17 00:43:22,60.75,-137.51,-22.43,95,1,8.75,clear sky,0.0,0.0
204,Tura,IN,2020-01-17 00:43:22,25.52,90.22,60.31,78,0,2.37,clear sky,0.0,0.0
205,Papara,BR,2020-01-17 00:43:23,-3.98,-38.73,82.0,77,79,15.99,broken clouds,0.0,0.0
206,Tondon,GN,2020-01-17 00:43:23,10.37,-13.35,69.4,75,57,1.68,broken clouds,0.0,0.0
207,Sechura,PE,2020-01-17 00:43:23,-5.56,-80.82,71.38,85,30,14.23,scattered clouds,0.0,0.0
208,Chuy,UY,2020-01-17 00:43:24,-33.7,-53.46,61.86,48,1,6.02,clear sky,0.0,0.0
209,Cidreira,BR,2020-01-17 00:43:24,-30.18,-50.21,71.24,56,93,16.58,overcast clouds,0.0,0.0
210,Esperance,AU,2020-01-17 00:43:25,-33.87,121.9,68.22,79,51,11.97,broken clouds,0.0,0.0
211,Sinnamary,GF,2020-01-17 00:43:25,5.38,-52.95,79.84,85,100,13.71,overcast clouds,0.0,0.0
212,Northam,GB,2020-01-17 00:43:26,51.03,-4.22,50.0,91,100,5.99,overcast clouds,0.0,0.0
213,Beyneu,KZ,2020-01-17 00:43:26,45.32,55.2,29.62,67,0,8.1,clear sky,0.0,0.0
214,Bengkulu,ID,2020-01-17 00:43:27,-3.8,102.27,73.92,93,66,3.24,light rain,0.13,0.0
215,Talnakh,RU,2020-01-17 00:43:27,69.49,88.4,3.74,90,100,24.99,light snow,0.0,0.31
216,Pitimbu,BR,2020-01-17 00:43:27,-7.47,-34.81,77.65,81,60,6.2,broken clouds,0.0,0.0
217,Sechelt,CA,2020-01-17 00:43:28,49.47,-123.77,39.99,64,40,3.36,scattered clouds,0.0,0.0
218,Kirakira,SB,2020-01-17 00:43:28,-10.45,161.92,83.77,71,60,8.32,broken clouds,0.0,0.0
219,Pirawa,IN,2020-01-17 00:43:29,24.16,76.03,51.46,98,6,5.82,clear sky,0.0,0.0
220,La Sarre,CA,2020-01-17 00:43:29,48.8,-79.2,-10.68,95,100,6.31,overcast clouds,0.0,0.0
221,Naze,JP,2020-01-17 00:43:29,28.37,129.48,62.67,88,99,22.17,light rain,2.69,0.0
222,Touros,BR,2020-01-17 00:43:30,-5.2,-35.46,82.26,78,52,20.85,broken clouds,0.0,0.0
223,Port-Gentil,GA,2020-01-17 00:43:30,-0.72,8.78,82.96,74,100,8.48,light rain,2.25,0.0
224,Ixtapa,MX,2020-01-17 00:43:31,20.7,-105.2,79.0,90,78,5.01,broken clouds,0.0,0.0
225,Kiruna,SE,2020-01-17 00:43:31,67.86,20.23,7.57,92,100,4.81,overcast clouds,0.0,0.0
226,Chardara,KZ,2020-01-17 00:41:06,41.25,67.97,30.06,81,0,5.84,clear sky,0.0,0.0
227,Padang,ID,2020-01-17 00:43:31,-0.95,100.35,68.67,95,90,4.34,overcast clouds,0.0,0.0
228,Saint George,US,2020-01-17 00:43:32,37.1,-113.58,55.4,32,1,5.82,clear sky,0.0,0.0
229,Port Hardy,CA,2020-01-17 00:43:32,50.7,-127.42,26.73,97,94,1.28,light snow,0.0,0.44
230,Sao Filipe,CV,2020-01-17 00:43:33,14.9,-24.5,71.1,64,2,17.56,clear sky,0.0,0.0
231,Nhulunbuy,AU,2020-01-17 00:43:33,-12.23,136.77,86.2,82,100,16.35,light rain,0.13,0.0
232,Cabrera,DO,2020-01-17 00:43:34,19.64,-69.9,75.99,81,4,4.65,light rain,0.38,0.0
233,Honningsvag,NO,2020-01-17 00:43:34,70.98,25.97,26.76,85,100,13.87,light snow,0.0,0.31
234,Gamba,GA,2020-01-17 00:43:35,-2.65,10.0,79.21,84,100,1.66,moderate rain,4.87,0.0
235,Pierre,US,2020-01-17 00:38:38,44.37,-100.35,16.0,71,65,11.01,broken clouds,0.0,0.0
236,Najran,SA,2020-01-17 00:42:04,17.49,44.13,37.9,31,21,1.03,few clouds,0.0,0.0
237,Le Port,RE,2020-01-17 00:43:36,-20.94,55.29,78.8,88,87,11.41,light rain,0.38,0.0
238,Kununurra,AU,2020-01-17 00:39:24,-15.77,128.73,92.62,49,33,6.13,light rain,0.25,0.0
239,Plainview,US,2020-01-17 00:43:37,40.78,-73.47,39.2,51,40,18.34,scattered clouds,0.0,0.0
240,Lavrentiya,RU,2020-01-17 00:43:37,65.58,-171.0,6.44,94,97,10.07,light snow,0.0,0.13
241,Vondrozo,MG,2020-01-17 00:43:37,-22.82,47.28,70.59,98,100,1.66,heavy intensity rain,18.38,0.0
242,Belaya Gora,RU,2020-01-17 00:43:38,68.53,146.42,-16.13,97,100,3.71,overcast clouds,0.0,0.0
243,North Bend,US,2020-01-17 00:43:38,43.41,-124.22,46.0,95,100,1.86,light rain,0.81,0.0
244,Algiers,DZ,2020-01-17 00:39:51,36.75,3.04,46.54,46,21,4.38,few clouds,0.0,0.0
245,Rundu,NA,2020-01-17 00:43:39,-17.93,19.77,68.18,77,17,2.08,few clouds,0.0,0.0
246,Roma,US,2020-01-17 00:38:40,43.21,-75.46,27.0,79,90,12.75,light snow,0.0,0.0
247,Fort Wellington,GY,2020-01-17 00:43:40,6.4,-57.6,80.71,81,48,15.1,light rain,0.13,0.0
248,Constitucion,CL,2020-01-17 00:43:40,-35.33,-72.42,59.05,69,0,5.08,clear sky,0.0,0.0
249,Akdepe,TM,2020-01-17 00:43:41,42.06,59.38,22.1,83,0,6.15,clear sky,0.0,0.0
250,Lompoc,US,2020-01-17 00:42:55,34.64,-120.46,51.8,93,90,4.7,moderate rain,0.0,0.0
251,Kabin Buri,TH,2020-01-17 00:43:41,13.95,101.72,71.01,65,0,2.33,clear sky,0.0,0.0
252,San Quintin,MX,2020-01-17 00:39:35,30.48,-115.95,58.71,70,0,5.79,clear sky,0.0,0.0
253,Rocha,UY,2020-01-17 00:43:42,-34.48,-54.33,58.06,47,0,4.92,clear sky,0.0,0.0
254,La Ronge,CA,2020-01-17 00:43:43,55.1,-105.28,-15.7,95,100,4.92,overcast clouds,0.0,0.0
255,Anadyr,RU,2020-01-17 00:40:03,64.75,177.48,28.0,92,100,15.01,light snow,0.0,0.25
256,Turukhansk,RU,2020-01-17 00:43:43,65.82,87.98,10.44,93,100,18.23,light snow,0.0,1.5
257,Imperia,IT,2020-01-17 00:43:43,43.97,7.78,48.0,75,20,10.29,few clouds,0.0,0.0
258,Samarai,PG,2020-01-17 00:43:44,-10.62,150.67,86.65,60,96,8.12,overcast clouds,0.0,0.0
259,Beringovskiy,RU,2020-01-17 00:43:44,63.05,179.32,24.51,86,67,12.3,broken clouds,0.0,0.0
260,Luderitz,NA,2020-01-17 00:43:45,-26.65,15.16,63.81,94,67,27.56,broken clouds,0.0,0.0
261,Kanlagay,PH,2020-01-17 00:43:45,5.88,121.29,81.1,80,60,5.28,light rain,2.0,0.0
262,Pokhara,NP,2020-01-17 00:43:45,28.23,83.98,51.78,95,100,3.24,moderate rain,8.31,0.0
263,Leningradskiy,RU,2020-01-17 00:43:46,69.38,178.42,14.41,94,100,8.55,light snow,0.0,0.13
264,Vila,PT,2020-01-17 00:43:46,42.03,-8.16,54.0,80,59,13.0,light rain,1.12,0.0
265,Havoysund,NO,2020-01-17 00:43:46,71.0,24.66,26.56,84,100,13.71,light snow,0.0,0.25
266,Batemans Bay,AU,2020-01-17 00:43:47,-35.72,150.18,69.01,80,100,7.0,overcast clouds,0.0,0.0
267,Grand Gaube,MU,2020-01-17 00:43:47,-20.01,57.66,79.0,88,75,9.17,broken clouds,0.0,0.0
268,Kahului,US,2020-01-17 00:39:28,20.89,-156.47,77.0,77,54,8.01,light rain,0.25,0.0
269,Dunedin,NZ,2020-01-17 00:42:12,-45.87,170.5,64.99,64,0,22.08,clear sky,0.0,0.0
270,Lichuan,CN,2020-01-17 00:43:49,30.3,108.85,32.88,93,84,2.8,broken clouds,0.0,0.0
271,Ayan,RU,2020-01-17 00:43:50,56.45,138.17,0.0,71,98,11.56,overcast clouds,0.0,0.0
272,Paraiso,CR,2020-01-17 00:43:50,9.84,-83.87,75.99,66,65,7.09,light rain,0.38,0.0
273,Fairbanks,US,2020-01-17 00:43:50,64.84,-147.72,-0.99,83,0,1.95,clear sky,0.0,0.0
274,Payakumbuh,ID,2020-01-17 00:43:51,-0.22,100.63,68.49,97,90,0.51,light rain,0.19,0.0
275,Chinhoyi,ZW,2020-01-17 00:43:52,-17.37,30.2,64.74,97,96,5.19,light rain,0.13,0.0
276,Batken,KG,2020-01-17 00:43:52,39.83,71.0,16.34,83,85,4.68,overcast clouds,0.0,0.0
277,Mitsamiouli,KM,2020-01-17 00:43:53,-11.38,43.28,81.99,81,45,16.08,light rain,1.56,0.0
278,Axim,GH,2020-01-17 00:43:53,4.87,-2.24,77.0,94,0,3.02,clear sky,0.0,0.0
279,Kalispell,US,2020-01-17 00:43:54,48.2,-114.31,36.0,84,75,3.36,broken clouds,0.0,0.0
280,Chimbote,PE,2020-01-17 00:43:54,-9.09,-78.58,71.56,76,0,6.08,clear sky,0.0,0.0
281,Sao Miguel Do Araguaia,BR,2020-01-17 00:43:55,-13.28,-50.16,79.39,72,49,1.7,scattered clouds,0.0,0.0
282,Plettenberg Bay,ZA,2020-01-17 00:43:55,-34.05,23.37,72.82,90,86,4.94,light rain,0.19,0.0
283,Fortuna,US,2020-01-17 00:43:55,40.6,-124.16,46.99,92,100,3.71,light rain,1.06,0.0
284,Mahibadhoo,MV,2020-01-17 00:43:56,3.78,72.97,80.53,78,63,14.07,broken clouds,0.0,0.0
285,Mahebourg,MU,2020-01-17 00:43:56,-20.41,57.7,79.0,88,75,9.17,broken clouds,0.0,0.0
286,Liangxiang,CN,2020-01-17 00:43:57,39.73,116.14,28.0,52,89,0.65,overcast clouds,0.0,0.0
287,Shieli,KZ,2020-01-17 00:43:57,44.17,66.75,19.42,80,0,1.48,clear sky,0.0,0.0
288,Ancud,CL,2020-01-17 00:43:57,-41.87,-73.82,56.62,75,0,6.46,clear sky,0.0,0.0
289,Necochea,AR,2020-01-17 00:43:58,-38.55,-58.74,60.01,59,0,7.0,clear sky,0.0,0.0
290,Ust-Tsilma,RU,2020-01-17 00:43:58,65.44,52.15,8.82,94,3,7.2,clear sky,0.0,0.0
291,Antalaha,MG,2020-01-17 00:43:59,-14.9,50.28,81.46,82,76,3.47,light rain,0.87,0.0
292,Trairi,BR,2020-01-17 00:43:59,-3.28,-39.27,74.73,90,65,2.62,broken clouds,0.0,0.0
293,Charyshskoye,RU,2020-01-17 00:44:00,51.4,83.56,5.27,79,18,7.52,few clouds,0.0,0.0
294,Korla,CN,2020-01-17 00:44:00,41.76,86.15,21.99,80,100,4.85,overcast clouds,0.0,0.0
295,Nedjo,ET,2020-01-17 00:44:00,9.5,35.5,61.0,31,9,3.98,clear sky,0.0,0.0
296,Forest,US,2020-01-17 00:44:01,37.36,-79.29,48.99,29,1,10.29,clear sky,0.0,0.0
297,Lavos,PT,2020-01-17 00:44:01,40.09,-8.83,55.0,95,46,12.88,light rain,0.69,0.0
298,Lasa,IT,2020-01-17 00:44:02,46.62,10.7,32.0,69,0,4.25,clear sky,0.0,0.0
299,Bua Yai,TH,2020-01-17 00:44:02,15.59,102.43,70.43,55,0,3.78,clear sky,0.0,0.0
300,Dakar,SN,2020-01-17 00:44:02,14.69,-17.44,69.8,73,47,16.11,scattered clouds,0.0,0.0
301,Trzebnica,PL,2020-01-17 00:44:03,51.31,17.06,35.01,9,0,8.77,clear sky,0.0,0.0
302,Salinas,US,2020-01-17 00:44:03,36.68,-121.66,46.99,87,90,5.84,moderate rain,0.0,0.0
303,Vestmanna,FO,2020-01-17 00:44:03,62.16,-7.17,41.29,96,100,14.88,light rain,3.0,0.0
304,Nanchang,CN,2020-01-17 00:44:04,28.68,115.88,37.6,79,11,4.43,few clouds,0.0,0.0
305,Abu Dhabi,AE,2020-01-17 00:41:49,24.47,54.37,66.33,54,0,10.4,clear sky,0.0,0.0
306,Marrakesh,MA,2020-01-17 00:43:40,31.63,-8.01,48.2,37,10,2.24,clear sky,0.0,0.0
307,Mecca,SA,2020-01-17 00:44:05,21.43,39.83,66.94,87,13,1.92,few clouds,0.0,0.0
308,Mount Isa,AU,2020-01-17 00:44:06,-20.73,139.5,93.87,18,1,12.17,clear sky,0.0,0.0
309,Grindavik,IS,2020-01-17 00:44:06,63.84,-22.43,35.6,76,75,18.34,shower sleet,0.0,0.0
310,Riyadh,SA,2020-01-17 00:44:07,24.69,46.72,51.67,53,5,9.78,clear sky,0.0,0.0
311,Hirara,JP,2020-01-17 00:44:07,24.8,125.28,69.53,75,22,14.67,few clouds,0.0,0.0
312,Lander,US,2020-01-17 00:44:08,42.83,-108.73,18.0,72,1,4.7,clear sky,0.0,0.0
313,Sola,VU,2020-01-17 00:44:08,-13.88,167.55,82.71,82,93,18.19,overcast clouds,0.0,0.0
314,Carutapera,BR,2020-01-17 00:44:08,-1.2,-46.02,82.42,79,58,14.0,broken clouds,0.0,0.0
315,Cuamba,MZ,2020-01-17 00:44:09,-14.8,36.54,70.92,97,100,2.28,light rain,1.94,0.0
316,Kharan,PK,2020-01-17 00:44:10,28.58,65.42,40.15,62,7,9.73,clear sky,0.0,0.0
317,Vao,NC,2020-01-17 00:44:10,-22.67,167.48,77.22,81,22,19.69,few clouds,0.0,0.0
318,Atasu,KZ,2020-01-17 00:44:11,48.68,71.64,14.04,89,100,25.46,overcast clouds,0.0,0.0
319,Aloleng,PH,2020-01-17 00:44:11,16.13,119.78,77.65,77,0,5.61,clear sky,0.0,0.0
320,Kragero,NO,2020-01-17 00:44:11,58.87,9.41,43.0,92,100,8.99,light rain,0.19,0.0
321,Sakakah,SA,2020-01-17 00:44:12,29.97,40.21,47.46,34,33,2.86,scattered clouds,0.0,0.0
322,Oum Hadjer,TD,2020-01-17 00:44:12,13.3,19.7,66.07,24,0,13.2,clear sky,0.0,0.0
323,Machali,CL,2020-01-17 00:44:13,-34.18,-70.67,65.82,22,9,2.57,clear sky,0.0,0.0
324,Dalby,AU,2020-01-17 00:44:13,-27.18,151.27,78.01,75,100,1.01,light rain,0.44,0.0
325,Newport,GB,2020-01-17 00:44:14,51.59,-3.0,50.0,89,100,14.16,overcast clouds,0.0,0.0
326,Pacific Grove,US,2020-01-17 00:44:15,36.62,-121.92,46.99,87,90,11.72,moderate rain,0.0,0.0
327,Kawalu,ID,2020-01-17 00:44:16,-7.38,108.21,72.95,89,89,0.58,overcast clouds,0.0,0.0
328,Richards Bay,ZA,2020-01-17 00:44:17,-28.78,32.04,77.04,86,7,11.05,clear sky,0.0,0.0
329,Saint-Augustin,CA,2020-01-17 00:44:17,51.23,-58.65,8.78,74,100,12.37,overcast clouds,0.0,0.0
330,Kavaratti,IN,2020-01-17 00:44:18,10.57,72.64,79.81,78,51,18.07,broken clouds,0.0,0.0
331,Aguazul,CO,2020-01-17 00:44:18,5.17,-72.55,82.44,54,94,3.02,overcast clouds,0.0,0.0
332,Tupik,RU,2020-01-17 00:44:19,54.43,119.93,-16.1,88,91,1.05,overcast clouds,0.0,0.0
333,Zhoucheng,CN,2020-01-17 00:44:19,35.91,116.31,27.27,87,0,1.52,clear sky,0.0,0.0
334,Pyapon,MM,2020-01-17 00:44:20,16.28,95.68,65.25,48,0,5.73,clear sky,0.0,0.0
335,Marzuq,YE,2020-01-17 00:44:21,14.4,46.47,42.17,34,0,2.73,clear sky,0.0,0.0
336,Chicaman,GT,2020-01-17 00:44:22,15.4,-90.77,56.01,97,68,3.56,light rain,0.31,0.0
337,Upata,VE,2020-01-17 00:44:22,8.01,-62.4,72.66,95,20,4.63,light rain,0.25,0.0
338,Terme,TR,2020-01-17 00:44:23,41.21,36.97,33.35,82,1,4.21,clear sky,0.0,0.0
339,Ahuimanu,US,2020-01-17 00:44:23,21.44,-157.84,78.01,65,35,8.01,light rain,0.25,0.0
340,Kaeo,NZ,2020-01-17 00:44:23,-35.1,173.78,84.0,60,2,1.01,clear sky,0.0,0.0
341,Humberto De Campos,BR,2020-01-17 00:44:24,-2.6,-43.46,78.17,87,86,3.98,overcast clouds,0.0,0.0
342,Lucapa,AO,2020-01-17 00:44:24,-8.42,20.74,67.5,94,79,2.86,light rain,0.19,0.0
343,Mokhsogollokh,RU,2020-01-17 00:44:25,61.47,128.92,-2.87,95,100,4.27,overcast clouds,0.0,0.0
344,Praia Da Vitoria,PT,2020-01-17 00:44:25,38.73,-27.07,59.25,63,83,12.75,broken clouds,0.0,0.0
345,Gazanjyk,TM,2020-01-17 00:44:26,39.24,55.52,32.86,68,0,5.64,clear sky,0.0,0.0
346,Luganville,VU,2020-01-17 00:44:26,-15.53,167.17,81.21,80,90,8.1,light rain,0.63,0.0
347,Russell,US,2020-01-17 00:44:27,32.35,-85.2,63.0,46,91,10.0,overcast clouds,0.0,0.0
348,Berlevag,NO,2020-01-17 00:44:27,70.86,29.09,25.81,82,89,10.78,overcast clouds,0.0,0.0
349,Raudeberg,NO,2020-01-17 00:44:28,61.99,5.14,46.99,66,100,17.63,overcast clouds,0.0,0.0
350,Pointe Michel,DM,2020-01-17 00:44:28,15.25,-61.38,78.98,78,0,18.28,clear sky,0.0,0.0
351,Te Anau,NZ,2020-01-17 00:44:29,-45.42,167.72,60.98,59,10,1.45,clear sky,0.0,0.0
352,Marienburg,PL,2020-01-17 00:44:29,54.04,19.03,36.0,100,1,6.8,clear sky,0.0,0.0
353,Chapais,CA,2020-01-17 00:44:29,49.78,-74.85,-17.97,97,98,7.14,overcast clouds,0.0,0.0
354,Seymchan,RU,2020-01-17 00:44:29,62.88,152.43,-16.26,96,100,3.76,overcast clouds,0.0,0.0
355,Bardiyah,LY,2020-01-17 00:44:30,31.76,25.09,59.83,71,66,12.66,light rain,0.44,0.0
356,Coahuayana,MX,2020-01-17 00:44:30,18.73,-103.68,76.15,80,18,4.14,light rain,1.25,0.0
357,Baykit,RU,2020-01-17 00:44:31,61.67,96.37,2.86,97,98,4.61,overcast clouds,0.0,0.0
358,Phuntsholing,BT,2020-01-17 00:44:31,26.85,89.39,38.5,76,0,5.19,clear sky,0.0,0.0
359,Pochutla,MX,2020-01-17 00:44:32,15.74,-96.47,82.92,64,0,9.98,clear sky,0.0,0.0
360,Hamilton,US,2020-01-17 00:42:56,39.18,-84.53,32.0,63,1,10.29,clear sky,0.0,0.0
361,Vila Franca Do Campo,PT,2020-01-17 00:44:33,37.72,-25.43,57.0,88,100,20.49,overcast clouds,0.0,0.0
362,Saldanha,ZA,2020-01-17 00:44:34,-33.01,17.94,64.4,82,2,10.29,clear sky,0.0,0.0
363,Manjeshwar,IN,2020-01-17 00:44:34,12.72,74.89,69.4,83,44,4.5,scattered clouds,0.0,0.0
364,Sioux Lookout,CA,2020-01-17 00:42:05,50.1,-91.92,-11.2,76,1,5.82,clear sky,0.0,0.0
365,Martaban,MM,2020-01-17 00:44:35,16.53,97.61,69.66,56,25,5.08,scattered clouds,0.0,0.0
366,Druzhba,UA,2020-01-17 00:44:36,52.04,33.95,32.29,95,97,7.85,overcast clouds,0.0,0.0
367,Port Lincoln,AU,2020-01-17 00:44:36,-34.73,135.87,60.42,63,95,14.5,overcast clouds,0.0,0.0
368,Labuhan,ID,2020-01-17 00:44:36,-6.88,112.21,77.54,84,62,5.12,broken clouds,0.0,0.0
369,Port Macquarie,AU,2020-01-17 00:44:37,-31.43,152.92,82.0,61,100,6.11,light rain,2.19,0.0
370,Viedma,AR,2020-01-17 00:44:38,-40.81,-63.0,56.5,49,0,9.24,clear sky,0.0,0.0
371,Luau,AO,2020-01-17 00:44:38,-10.71,22.22,66.31,97,22,3.38,few clouds,0.0,0.0
372,Ruwi,OM,2020-01-17 00:44:38,23.6,58.55,57.38,50,0,4.05,clear sky,0.0,0.0
373,Olinda,BR,2020-01-17 00:44:38,-8.01,-34.86,78.78,78,12,7.47,few clouds,0.0,0.0
374,Gweta,BW,2020-01-17 00:44:39,-20.18,25.23,73.36,65,100,8.48,overcast clouds,0.0,0.0
375,Chapada Dos Guimaraes,BR,2020-01-17 00:44:39,-15.46,-55.75,75.31,81,50,2.1,light rain,1.12,0.0
376,Whitehorse,CA,2020-01-17 00:44:40,60.72,-135.05,-23.01,73,0,8.01,clear sky,0.0,0.0
377,Tuy Hoa,VN,2020-01-17 00:44:41,13.08,109.3,73.99,85,56,11.23,light rain,0.31,0.0
378,Nome,US,2020-01-17 00:44:41,64.5,-165.41,9.0,79,40,20.0,scattered clouds,0.0,0.0
379,Svetlogorsk,BY,2020-01-17 00:44:41,52.63,29.73,32.5,93,0,7.18,clear sky,0.0,0.0
380,Lumeje,AO,2020-01-17 00:44:42,-11.55,20.78,67.77,90,58,5.66,light rain,0.69,0.0
381,Yermakovskoye,RU,2020-01-17 00:44:42,53.28,92.4,8.8,95,99,4.03,overcast clouds,0.0,0.0
382,Karratha,AU,2020-01-17 00:44:43,-20.74,116.85,85.08,73,56,16.06,broken clouds,0.0,0.0
383,Palasa,IN,2020-01-17 00:44:43,18.77,84.42,60.69,83,0,3.29,clear sky,0.0,0.0
384,Banda Aceh,ID,2020-01-17 00:44:43,5.56,95.32,71.96,94,51,5.17,broken clouds,0.0,0.0
385,Porbandar,IN,2020-01-17 00:40:05,21.64,69.61,66.11,49,0,15.68,clear sky,0.0,0.0
386,Little Current,CA,2020-01-17 00:43:47,45.98,-81.92,6.01,83,85,16.89,overcast clouds,0.0,0.0
387,Homer,US,2020-01-17 00:42:44,59.64,-151.55,10.0,58,0,1.99,clear sky,0.0,0.0
388,Jhinjhak,IN,2020-01-17 00:44:46,26.57,79.73,57.06,96,78,1.9,broken clouds,0.0,0.0
389,Yulara,AU,2020-01-17 00:44:47,-25.24,130.99,88.45,25,0,17.29,clear sky,0.0,0.0
390,Ambon,ID,2020-01-17 00:43:35,-3.7,128.18,83.59,73,32,7.18,scattered clouds,0.0,0.0
391,Pedro Leopoldo,BR,2020-01-17 00:44:48,-19.62,-44.04,73.27,89,100,5.35,moderate rain,8.25,0.0
392,Acapulco,MX,2020-01-17 00:41:00,16.86,-99.89,78.33,70,83,4.43,broken clouds,0.0,0.0
393,Tazmalt,DZ,2020-01-17 00:44:49,36.39,4.4,41.09,60,84,3.69,broken clouds,0.0,0.0
394,College,US,2020-01-17 00:42:55,64.86,-147.8,1.99,83,0,1.7,clear sky,0.0,0.0
395,Chara,RU,2020-01-17 00:44:50,56.91,118.26,-9.83,71,49,1.05,scattered clouds,0.0,0.0
396,Geraldton,AU,2020-01-17 00:44:51,-28.77,114.6,72.37,85,13,16.28,few clouds,0.0,0.0
397,Ketchikan,US,2020-01-17 00:44:51,55.34,-131.65,6.73,65,100,3.6,overcast clouds,0.0,0.0
398,Emerald,AU,2020-01-17 00:44:51,-23.53,148.17,66.99,93,59,7.0,moderate rain,4.0,0.0
399,Barcelos,PT,2020-01-17 00:44:51,41.54,-8.62,52.0,94,44,5.17,light rain,2.88,0.0
400,Male,MV,2020-01-17 00:42:48,4.17,73.51,80.47,76,45,14.36,scattered clouds,0.0,0.0
401,Khasan,RU,2020-01-17 00:44:53,42.43,130.64,8.87,79,0,5.84,clear sky,0.0,0.0
402,Talaya,RU,2020-01-17 00:44:53,61.38,152.75,-18.92,98,100,3.78,light snow,0.0,0.13
403,Nguruka,TZ,2020-01-17 00:44:54,-5.11,31.04,65.21,94,100,0.89,overcast clouds,0.0,0.0
404,Porto Novo,BJ,2020-01-17 00:44:54,6.5,2.6,79.3,87,3,4.18,clear sky,0.0,0.0
405,Noumea,NC,2020-01-17 00:44:55,-22.28,166.46,84.99,88,0,20.4,clear sky,0.0,0.0
406,Wajir,KE,2020-01-17 00:44:55,1.75,40.06,80.64,36,61,11.74,broken clouds,0.0,0.0
407,Ambovombe,MG,2020-01-17 00:44:55,-25.17,46.08,74.62,79,100,2.75,overcast clouds,0.0,0.0
408,Palana,RU,2020-01-17 00:44:57,59.12,159.97,11.7,91,100,5.82,light snow,0.0,0.31
409,Alta Gracia,AR,2020-01-17 00:44:57,-31.65,-64.43,71.01,43,19,1.74,few clouds,0.0,0.0
410,Visby,SE,2020-01-17 00:44:57,57.64,18.3,41.0,29,8,5.99,clear sky,0.0,0.0
411,Progreso,MX,2020-01-17 00:44:57,21.28,-89.67,79.0,69,0,22.37,clear sky,0.0,0.0
412,Am Timan,TD,2020-01-17 00:44:58,11.03,20.28,70.36,17,1,6.11,clear sky,0.0,0.0
413,Caravelas,BR,2020-01-17 00:44:58,-17.71,-39.25,80.47,85,0,16.87,clear sky,0.0,0.0
414,Dingli,MT,2020-01-17 00:44:59,35.86,14.38,55.0,90,4,10.0,clear sky,0.0,0.0
415,Sens,FR,2020-01-17 00:44:59,48.17,3.33,52.0,67,45,1.01,scattered clouds,0.0,0.0
416,Levelland,US,2020-01-17 00:45:00,33.59,-102.38,30.99,90,100,8.99,overcast clouds,0.0,0.0
417,Padilla,CO,2020-01-17 00:45:00,3.22,-76.31,78.8,65,20,11.41,few clouds,0.0,0.0
418,Tarragona,ES,2020-01-17 00:45:00,41.13,1.25,53.01,95,0,4.29,clear sky,0.0,0.0
419,Novorzhev,RU,2020-01-17 00:45:01,57.03,29.33,40.1,82,92,11.16,overcast clouds,0.0,0.0
420,Mildura,AU,2020-01-17 00:45:01,-34.2,142.15,64.99,41,0,5.99,clear sky,0.0,0.0
421,Yantal,RU,2020-01-17 00:45:02,56.85,105.25,11.66,92,100,8.3,light snow,0.0,0.13
422,Aguilas,ES,2020-01-17 00:45:02,37.41,-1.58,48.99,54,4,1.36,clear sky,0.0,0.0
423,Okha,RU,2020-01-17 00:45:03,53.57,142.95,-1.14,84,6,13.06,clear sky,0.0,0.0
424,Meadow Lake,US,2020-01-17 00:45:03,34.8,-106.54,35.01,100,90,3.71,overcast clouds,0.0,0.0
425,Saint-Louis,SN,2020-01-17 00:45:03,16.33,-15.0,73.4,18,57,4.7,broken clouds,0.0,0.0
426,Tungor,RU,2020-01-17 00:45:04,53.38,142.96,-1.3,83,0,12.95,clear sky,0.0,0.0
427,Broome,US,2020-01-17 00:45:04,42.25,-75.83,30.0,61,100,8.01,light snow,0.0,0.75
428,Disna,BY,2020-01-17 00:45:05,55.57,28.2,37.94,85,92,11.83,overcast clouds,0.0,0.0
429,Hofn,IS,2020-01-17 00:45:05,64.25,-15.21,42.89,75,100,17.0,light rain,0.56,0.0
430,Baykalsk,RU,2020-01-17 00:45:06,51.51,104.15,12.0,68,47,6.2,scattered clouds,0.0,0.0
431,Doha,QA,2020-01-17 00:40:50,25.29,51.53,59.0,76,0,1.01,clear sky,0.0,0.0
432,Asuncion,PY,2020-01-17 00:42:51,-25.3,-57.64,76.87,77,98,7.61,overcast clouds,0.0,0.0
433,Dustlik,UZ,2020-01-17 00:45:07,40.52,68.04,27.63,89,32,1.72,scattered clouds,0.0,0.0
434,Cap Malheureux,MU,2020-01-17 00:45:07,-19.98,57.61,79.0,88,75,9.17,broken clouds,0.0,0.0
435,The Valley,AI,2020-01-17 00:42:27,18.22,-63.06,78.01,70,1,5.99,clear sky,0.0,0.0
436,Moranbah,AU,2020-01-17 00:45:08,-22.0,148.05,90.39,46,3,16.08,clear sky,0.0,0.0
437,Kungurtug,RU,2020-01-17 00:45:09,50.6,97.52,-0.87,87,100,0.89,overcast clouds,0.0,0.0
438,Tumut,AU,2020-01-17 00:45:09,-35.3,148.22,76.28,50,5,5.93,light rain,0.13,0.0
439,Lagoa,PT,2020-01-17 00:45:10,39.05,-27.98,57.87,62,99,13.89,overcast clouds,0.0,0.0
440,Oistins,BB,2020-01-17 00:45:10,13.07,-59.53,77.76,81,17,15.52,few clouds,0.0,0.0
441,Marovoay,MG,2020-01-17 00:45:10,-16.1,46.63,77.0,100,20,3.36,few clouds,0.0,0.0
442,Yabrud,SY,2020-01-17 00:45:11,33.97,36.66,46.99,45,35,2.73,scattered clouds,0.0,0.0
443,Yerbogachen,RU,2020-01-17 00:45:11,61.28,108.01,8.46,95,97,6.49,light snow,0.0,0.19
444,Merke,KZ,2020-01-17 00:45:11,42.87,73.18,12.61,84,31,5.61,scattered clouds,0.0,0.0
445,Lalganj,IN,2020-01-17 00:45:12,25.87,85.18,62.8,70,51,4.16,broken clouds,0.0,0.0
446,Manggar,ID,2020-01-17 00:45:12,-2.88,108.27,81.36,80,52,7.72,light rain,1.5,0.0
447,Taoudenni,ML,2020-01-17 00:45:13,22.68,-3.98,59.81,25,0,11.5,clear sky,0.0,0.0
448,Puerto Penasco,MX,2020-01-17 00:45:13,31.32,-113.53,61.0,85,62,11.01,broken clouds,0.0,0.0
449,Saint-Ambroise,CA,2020-01-17 00:45:14,48.55,-71.33,3.99,77,40,20.8,scattered clouds,0.0,0.0
450,Alekseyevsk,RU,2020-01-17 00:45:14,57.84,108.35,13.87,94,100,9.71,light snow,0.0,0.69
451,Bull Savanna,JM,2020-01-17 00:45:15,17.89,-77.59,69.35,89,24,3.83,light rain,0.13,0.0
452,Banes,CU,2020-01-17 00:45:15,20.96,-75.72,78.12,82,20,23.24,light rain,0.44,0.0
453,Portland,US,2020-01-17 00:43:06,45.52,-122.68,42.01,75,1,5.82,clear sky,0.0,0.0
454,Puerto Escondido,MX,2020-01-17 00:45:16,15.85,-97.07,74.35,57,0,1.72,clear sky,0.0,0.0
455,Moberly,US,2020-01-17 00:45:16,39.42,-92.44,26.6,53,1,6.93,clear sky,0.0,0.0
456,Ilebo,CD,2020-01-17 00:45:17,-4.32,20.58,72.61,95,96,2.01,light rain,1.31,0.0
457,Grajau,BR,2020-01-17 00:45:18,-5.82,-46.14,73.38,93,100,3.36,light rain,1.31,0.0
458,Pascagoula,US,2020-01-17 00:44:56,30.37,-88.56,66.2,82,90,11.41,overcast clouds,0.0,0.0
459,Mersing,MY,2020-01-17 00:45:20,2.43,103.84,79.29,84,64,15.35,broken clouds,0.0,0.0
460,Yinchuan,CN,2020-01-17 00:45:20,38.47,106.27,17.6,80,0,7.05,clear sky,0.0,0.0
461,Olavarria,AR,2020-01-17 00:45:21,-36.89,-60.32,64.0,39,0,6.93,clear sky,0.0,0.0
462,Rio Verde De Mato Grosso,BR,2020-01-17 00:45:21,-18.92,-54.84,75.49,85,70,3.8,moderate rain,6.31,0.0
463,Yamethin,MM,2020-01-17 00:45:22,20.43,96.15,59.2,66,0,3.11,clear sky,0.0,0.0
464,Iwanai,JP,2020-01-17 00:45:23,42.97,140.51,23.32,86,100,12.95,light snow,0.0,0.75
465,Atbasar,KZ,2020-01-17 00:45:23,51.8,68.33,25.25,93,100,22.48,light snow,0.0,0.5
466,Aljezur,PT,2020-01-17 00:45:24,37.32,-8.8,61.0,98,96,7.0,light rain,0.69,0.0
467,Namatanai,PG,2020-01-17 00:45:25,-3.67,152.43,83.95,75,100,9.62,light rain,2.19,0.0
468,Zharkent,KZ,2020-01-17 00:45:25,44.16,80.0,13.03,98,100,1.97,overcast clouds,0.0,0.0
469,Zhangye,CN,2020-01-17 00:45:25,38.93,100.45,19.45,47,0,2.17,clear sky,0.0,0.0
470,Tautira,PF,2020-01-17 00:45:26,-17.73,-149.15,86.0,66,100,16.98,light rain,0.19,0.0
471,San Cristobal,VE,2020-01-17 00:45:26,7.77,-72.22,55.38,98,68,3.69,light rain,0.63,0.0
472,La Rioja,ES,2020-01-17 00:45:27,42.25,-2.5,41.0,88,100,1.99,light snow,0.0,0.63
473,Iquitos,PE,2020-01-17 00:41:53,-3.75,-73.25,75.83,93,64,2.3,light rain,0.94,0.0
474,Altamont,US,2020-01-17 00:43:12,42.21,-121.74,30.99,94,100,1.99,snow,0.0,1.69
475,Ayolas,PY,2020-01-17 00:45:28,-27.4,-56.9,70.32,85,100,4.41,overcast clouds,0.0,0.0
476,Motihari,IN,2020-01-17 00:45:28,26.65,84.92,62.83,70,89,8.3,overcast clouds,0.0,0.0
477,Dingle,PH,2020-01-17 00:45:29,11.0,122.67,78.35,87,81,8.19,broken clouds,0.0,0.0
478,Sarangani,PH,2020-01-17 00:45:30,5.4,125.46,81.34,79,100,22.82,overcast clouds,0.0,0.0
479,Camana,PE,2020-01-17 00:45:30,-16.62,-72.71,65.23,82,52,4.16,broken clouds,0.0,0.0
480,Rio Gallegos,AR,2020-01-17 00:45:31,-51.62,-69.22,58.21,65,70,27.67,broken clouds,0.0,0.0
481,Redmond,US,2020-01-17 00:45:31,47.67,-122.12,43.0,52,1,5.82,light rain,0.0,0.0
482,Kouango,CF,2020-01-17 00:45:32,4.99,19.96,73.11,27,82,2.53,broken clouds,0.0,0.0
483,Lamont,US,2020-01-17 00:45:32,35.26,-118.91,60.01,80,90,25.28,overcast clouds,0.0,0.0
484,Coxim,BR,2020-01-17 00:45:33,-18.51,-54.76,76.75,84,84,5.32,light rain,1.44,0.0
485,Bullhead City,US,2020-01-17 00:45:33,35.15,-114.57,66.2,25,1,11.41,clear sky,0.0,0.0
486,Yichang,CN,2020-01-17 00:45:33,30.71,111.28,34.07,79,0,0.81,clear sky,0.0,0.0
487,Half Moon Bay,US,2020-01-17 00:43:25,37.46,-122.43,50.0,66,20,16.11,light rain,0.0,0.0
488,Abu Kamal,SY,2020-01-17 00:45:34,34.45,40.92,45.34,88,70,8.03,broken clouds,0.0,0.0
489,Sault Sainte Marie,CA,2020-01-17 00:42:50,46.52,-84.33,17.6,61,75,19.46,light shower snow,0.0,0.0
490,Providencia,MX,2020-01-17 00:45:35,28.72,-111.58,64.0,76,100,1.99,overcast clouds,0.0,0.0
491,Dwarka,IN,2020-01-17 00:45:35,22.24,68.97,67.01,45,0,16.15,clear sky,0.0,0.0
492,Gallup,US,2020-01-17 00:45:35,35.53,-108.74,33.8,86,90,2.51,light rain,0.0,0.0
493,Goure,NE,2020-01-17 00:45:36,13.98,10.27,61.0,36,0,8.99,clear sky,0.0,0.0
494,Port Blair,IN,2020-01-17 00:45:36,11.67,92.75,79.65,78,18,12.53,few clouds,0.0,0.0
495,Lalmohan,BD,2020-01-17 00:45:36,22.34,90.74,65.07,64,0,5.3,clear sky,0.0,0.0
496,Jiangyou,CN,2020-01-17 00:45:37,31.77,104.72,32.11,95,98,0.36,overcast clouds,0.0,0.0
497,Smithers,CA,2020-01-17 00:45:37,54.78,-127.17,-9.4,97,100,4.09,light snow,0.0,0.31
498,Nemuro,JP,2020-01-17 00:45:38,43.32,145.57,26.69,66,0,10.18,clear sky,0.0,0.0
499,Zaozerne,UA,2020-01-17 00:45:38,45.16,33.28,36.91,83,0,9.73,clear sky,0.0,0.0
500,Hobyo,SO,2020-01-17 00:45:39,5.35,48.53,72.36,71,2,20.54,clear sky,0.0,0.0
501,Kieta,PG,2020-01-17 00:45:39,-6.22,155.63,85.66,69,99,10.31,light rain,0.13,0.0
502,Zyryanka,RU,2020-01-17 00:45:39,65.75,150.85,-15.05,97,100,6.89,light snow,0.0,0.13
503,Gull Lake,CA,2020-01-17 00:45:29,50.1,-108.48,-0.02,93,100,9.8,overcast clouds,0.0,0.0
504,Maracaibo,VE,2020-01-17 00:45:40,10.63,-71.64,85.75,64,13,22.84,few clouds,0.0,0.0
505,Ballinasloe,IE,2020-01-17 00:45:41,53.33,-8.22,36.86,88,68,8.05,broken clouds,0.0,0.0
506,Kochevo,RU,2020-01-17 00:45:41,59.6,54.31,29.75,91,100,9.8,light snow,0.0,0.25
507,Bani,DO,2020-01-17 00:45:41,18.28,-70.33,75.99,74,3,3.0,clear sky,0.0,0.0
508,Dudinka,RU,2020-01-17 00:45:42,69.41,86.18,6.98,92,100,24.25,light snow,0.0,0.56
509,Wawa,NG,2020-01-17 00:45:42,9.9,4.42,74.86,36,0,5.99,clear sky,0.0,0.0
510,Waingapu,ID,2020-01-17 00:45:43,-9.66,120.26,82.58,73,88,6.82,overcast clouds,0.0,0.0
511,Arrecife,ES,2020-01-17 00:45:43,28.96,-13.55,59.0,33,26,8.05,scattered clouds,0.0,0.0
512,Minnedosa,CA,2020-01-17 00:45:44,50.25,-99.84,-9.4,57,75,11.41,broken clouds,0.0,0.0
513,Qandala,SO,2020-01-17 00:45:44,11.47,49.87,67.32,72,20,4.43,few clouds,0.0,0.0
514,Bayir,TR,2020-01-17 00:45:45,37.27,28.22,37.15,80,2,1.05,clear sky,0.0,0.0
515,Atambua,ID,2020-01-17 00:45:45,-9.11,124.89,80.67,80,24,2.1,few clouds,0.0,0.0
516,Kolpashevo,RU,2020-01-17 00:45:45,58.31,82.91,13.41,92,99,16.8,light snow,0.0,0.31
517,Lakhdenpokhya,RU,2020-01-17 00:45:46,61.52,30.2,37.99,92,98,8.19,overcast clouds,0.0,0.0
518,Asyut,EG,2020-01-17 00:45:46,27.18,31.18,48.85,75,0,8.68,clear sky,0.0,0.0
519,Yarada,IN,2020-01-17 00:45:46,17.65,83.27,72.05,85,8,11.43,light rain,0.13,0.0
520,Denpasar,ID,2020-01-17 00:45:47,-8.65,115.22,80.6,74,78,2.8,light rain,0.13,0.0
521,Paratinga,BR,2020-01-17 00:45:47,-12.69,-43.18,73.51,59,7,1.63,clear sky,0.0,0.0
522,Dzhankoy,UA,2020-01-17 00:45:47,45.72,34.4,32.36,93,12,3.85,few clouds,0.0,0.0
523,Avanigadda,IN,2020-01-17 00:45:48,16.02,80.92,70.47,89,23,3.27,light rain,0.38,0.0
524,Ambilobe,MG,2020-01-17 00:45:48,-13.2,49.05,75.31,93,61,2.13,broken clouds,0.0,0.0
525,Umm Kaddadah,SD,2020-01-17 00:45:49,13.6,26.69,67.39,31,3,12.71,clear sky,0.0,0.0
526,Port Hedland,AU,2020-01-17 00:45:49,-20.32,118.57,89.08,56,98,13.67,light rain,0.62,0.0
527,Villa Carlos Paz,AR,2020-01-17 00:45:49,-31.42,-64.5,71.01,43,18,2.17,few clouds,0.0,0.0
528,Keskin,TR,2020-01-17 00:45:50,39.67,33.61,27.0,87,15,5.55,few clouds,0.0,0.0
529,Lewisburg,US,2020-01-17 00:45:50,35.45,-86.79,46.4,67,1,9.17,clear sky,0.0,0.0
530,Okhotsk,RU,2020-01-17 00:45:51,59.38,143.3,-14.64,77,96,9.08,overcast clouds,0.0,0.0
